,Name,Cloudiness,Country,Date,Humidity,Lat,Lng,Max Temp,Wind Speed
0,Pagudpud,75,PH,1592090921,83,18.56,120.79,80.6,4.16
1,Albany,30,US,1592090689,50,42.6,-73.97,59.0,7.72
2,Nānākuli,40,US,1592090921,48,21.39,-158.15,86.0,16.11
3,Salalah,75,OM,1592090904,94,17.02,54.09,84.2,4.7
4,Khovd,2,MN,1592090922,32,48.01,91.64,61.7,2.51
5,Busselton,24,AU,1592090652,85,-33.65,115.33,53.01,12.68
6,Faanui,27,PF,1592090922,79,-16.48,-151.75,80.85,9.75
7,Narasannapeta,100,IN,1592090922,82,18.42,84.05,83.1,7.52
8,Vao,34,NC,1592090923,80,-22.67,167.48,72.82,25.86
9,Bethanien,0,NA,1592090923,47,-26.5,17.16,43.9,6.49
10,Yellowknife,75,CA,1592090882,37,62.46,-114.35,66.2,14.99
11,Jamestown,1,US,1592090923,41,42.1,-79.24,59.0,8.05
12,Matamoros,20,MX,1592090923,14,25.53,-103.25,91.4,16.11
13,Port Blair,98,IN,1592090924,81,11.67,92.75,82.9,12.41
14,Sisimiut,100,GL,1592090924,75,66.94,-53.67,38.91,8.25
15,Ushuaia,40,AR,1592090924,74,-54.8,-68.3,33.8,9.17
16,Rikitea,100,PF,1592090924,82,-23.12,-134.97,76.24,12.53
17,New Norfolk,100,AU,1592090924,80,-42.78,147.06,52.0,4.0
18,Nemuro,0,JP,1592090925,84,43.32,145.57,56.55,6.64
19,Keti Bandar,0,PK,1592090925,85,24.14,67.45,83.07,9.6
20,Hilo,20,US,1592090925,51,19.73,-155.09,84.2,12.75
21,Makkah al Mukarramah,2,SA,1592090925,29,21.43,39.83,90.19,3.78
22,Pangnirtung,12,CA,1592090925,75,66.15,-65.71,38.21,3.18
23,Severo-Kuril'sk,100,RU,1592090926,93,50.68,156.12,40.96,21.97
24,Bambous Virieux,75,MU,1592090926,94,-20.34,57.76,71.6,3.36
25,Betioky,27,MG,1592090926,78,-23.72,44.38,61.11,11.36
26,Nísia Floresta,20,BR,1592090926,94,-6.09,-35.21,75.2,4.7
27,Cidreira,50,BR,1592090927,57,-30.18,-50.21,55.71,15.61
28,Markivka,68,UA,1592090927,64,49.52,39.57,66.15,2.04
29,Pacific Grove,1,US,1592090927,48,36.62,-121.92,66.2,14.99
30,Esperance,28,AU,1592090927,87,-33.87,121.9,51.8,14.99
31,Nara,75,JP,1592090927,94,34.69,135.8,77.0,2.24
32,Pestovo,0,RU,1592090928,77,58.59,35.8,47.37,5.1
33,Alta Floresta,5,BR,1592090691,72,-9.88,-56.09,75.15,2.28
34,Palmer,20,US,1592090928,42,42.16,-72.33,64.99,10.29
35,Ushtobe,0,KZ,1592090928,40,45.25,77.98,63.68,7.05
36,Padang,41,ID,1592090929,71,-0.95,100.35,78.98,3.69
37,Kaitangata,0,NZ,1592090929,76,-46.28,169.85,37.99,3.0
38,Butaritari,36,KI,1592090929,72,3.07,172.79,82.89,10.54
39,Bluff,0,NZ,1592090929,70,-46.6,168.33,40.82,8.5
40,Atuona,26,PF,1592090929,81,-9.8,-139.03,80.74,20.27
41,Province of Trapani,0,IT,1592090930,88,37.83,12.67,73.99,9.17
42,Caravelas,0,BR,1592090930,89,-17.71,-39.25,71.85,3.47
43,Saint Paul Harbor,1,US,1592090930,48,57.79,-152.41,62.6,13.87
44,Arrondissement de Villefranche-de-Rouergue,0,FR,1592090930,94,44.33,2.0,54.0,0.94
45,Narsaq,100,GL,1592090930,87,60.92,-46.05,44.6,4.7
46,Mossamedes,0,AO,1592090931,73,-15.2,12.15,68.18,5.68
47,Dikson,100,RU,1592090931,87,73.51,80.55,34.93,12.75
48,Marawi,100,PH,1592090931,86,8.0,124.29,79.0,5.01
49,Ribeira Grande,40,PT,1592090931,67,38.52,-28.7,60.8,9.17
50,San Cristobal,40,VE,1592090931,48,7.77,-72.22,86.0,20.8
51,Hong Kong,98,HK,1592090818,87,22.29,114.16,82.99,4.0
52,Port Lincoln,52,AU,1592090932,78,-34.73,135.87,58.71,20.09
53,Avarua,13,CK,1592090906,53,-21.21,-159.78,75.2,8.05
54,Qaanaaq,11,GL,1592090933,69,77.48,-69.36,40.21,4.09
55,Carnarvon,24,AU,1592090933,43,-24.87,113.63,60.1,20.94
56,Lagoa,24,PT,1592090933,69,39.05,-27.98,61.81,16.2
57,Mataura,0,NZ,1592090933,68,-46.19,168.86,40.41,3.18
58,Krasnoarmeysk,40,RU,1592090933,53,51.02,45.7,64.99,3.0
59,Nikolskoye,0,RU,1592090934,62,59.7,30.79,53.6,2.24
60,San Rafael,2,AR,1592090934,46,-34.62,-68.33,47.59,6.71
61,Vaini,75,TO,1592090934,73,-21.2,-175.2,73.4,13.87
62,Karakol,0,KG,1592090646,45,42.49,78.39,49.68,4.0
63,Ratnagiri,100,IN,1592090934,84,16.98,73.3,81.5,9.04
64,Ilulissat,89,GL,1592090935,52,69.22,-51.1,42.8,6.93
65,Erbaa,75,TR,1592090935,93,40.67,36.57,59.0,4.7
66,Khatanga,0,RU,1592090935,53,71.97,102.5,47.14,8.88
67,Flinders,100,AU,1592090935,95,-34.58,150.86,62.01,1.01
68,Fortuna,20,US,1592090935,72,40.6,-124.16,64.99,8.05
69,Tiksi,100,RU,1592090936,94,71.69,128.87,33.19,7.16
70,Kapaa,75,US,1592090936,62,22.08,-159.32,84.2,14.99
71,Coquimbo,0,CL,1592090936,76,-29.95,-71.34,57.2,4.7
72,Druzhba,100,UA,1592090937,92,52.04,33.95,60.82,18.72
73,Bredasdorp,38,ZA,1592090937,81,-34.53,20.04,53.6,6.58
74,Vidin,98,BG,1592090937,96,43.99,22.87,63.0,5.01
75,San Patricio,40,MX,1592090937,74,19.22,-104.7,84.2,11.41
76,Saint-Philippe,20,RE,1592090937,82,-21.36,55.77,66.2,2.24
77,Puqi,100,CN,1592090938,95,29.72,113.88,76.91,3.11
78,Husavik,20,IS,1592090938,57,66.04,-17.34,51.8,5.82
79,Madona,0,LV,1592090938,75,56.85,26.22,52.3,7.45
80,Bhaderwah,0,IN,1592090939,47,32.98,75.72,61.23,2.08
81,Sioux Lookout,20,CA,1592090855,32,50.1,-91.92,68.0,8.05
82,Thompson,75,CA,1592090939,34,55.74,-97.86,68.0,11.41
83,Barrow,90,US,1592090939,86,71.29,-156.79,39.2,8.05
84,Teya,99,RU,1592090940,88,60.38,92.63,60.89,6.4
85,Agirish,38,RU,1592090940,78,61.92,63.02,39.16,7.29
86,Madang,100,PG,1592090940,73,-5.22,145.8,83.61,3.69
87,Saskylakh,96,RU,1592090940,58,71.92,114.08,44.83,6.89
88,Cabo San Lucas,75,MX,1592090940,30,22.89,-109.91,93.2,18.34
89,Alexandria,0,EG,1592090941,68,31.22,29.96,71.6,8.05
90,George Town,20,MY,1592090799,94,5.41,100.34,80.6,4.05
91,Dingle,100,PH,1592090941,84,11.0,122.67,78.01,6.93
92,Ostrovnoy,48,RU,1592090941,63,68.05,39.51,56.01,15.03
93,Farafangana,56,MG,1592090942,91,-22.82,47.83,65.28,9.28
94,Cherskiy,35,RU,1592090942,43,68.75,161.3,66.13,7.67
95,Cape Town,20,ZA,1592090942,87,-33.93,18.42,51.01,9.17
96,Nuuk,100,GL,1592090942,75,64.18,-51.72,41.0,29.97
97,Revda,0,RU,1592090943,93,56.8,59.93,35.6,2.71
98,Chokurdakh,72,RU,1592090943,40,70.63,147.92,64.09,6.42
99,Kudat,75,MY,1592090943,100,6.88,116.85,77.0,2.24
100,Chui,0,UY,1592090943,64,-33.7,-53.46,44.11,11.18
101,Clyde River,1,CA,1592090943,86,70.47,-68.59,33.8,13.87
102,Staraya Poltavka,19,RU,1592090944,72,50.48,46.48,65.75,14.36
103,Yulara,0,AU,1592090944,65,-25.24,130.99,46.4,6.93
104,Arraial do Cabo,0,BR,1592090944,94,-22.97,-42.03,71.6,3.36
105,Hīt,0,IQ,1592090944,27,33.64,42.83,77.38,5.14
106,Kościerzyna,40,PL,1592090945,93,54.12,17.98,59.0,9.17
107,Hervey Bay,41,AU,1592090945,87,-25.3,152.85,75.0,3.0
108,Saint-Augustin,53,CA,1592090945,63,51.23,-58.65,55.74,15.88
109,Boa Vista,20,BR,1592090709,66,2.82,-60.67,84.2,3.36
110,Līgatne,10,LV,1592090945,72,57.23,25.04,54.0,6.46
111,Pisco,75,PE,1592090946,82,-13.7,-76.22,64.99,8.05
112,Souillac,75,MU,1592090946,94,-20.52,57.52,71.6,3.36
113,Petropavlovsk-Kamchatskiy,89,RU,1592090946,66,53.05,158.65,51.8,6.71
114,Freetown,100,SL,1592090946,84,8.48,-13.23,79.74,3.76
115,Vila Franca do Campo,20,PT,1592090947,82,37.72,-25.43,55.4,5.82
116,Hermanus,19,ZA,1592090947,57,-34.42,19.23,54.63,8.37
117,Punta Arenas,20,CL,1592090947,92,-53.15,-70.92,24.8,3.36
118,Mafinga,45,TZ,1592090947,64,-7.25,35.07,60.31,1.5
119,Abonnema,100,NG,1592090947,92,4.71,6.79,76.82,6.96
120,Broken Hill,0,AU,1592090948,81,-31.95,141.43,48.2,10.29
121,Sakakah,0,SA,1592090948,12,29.97,40.21,78.8,0.87
122,Diu,98,IN,1592090948,70,20.71,70.98,85.71,3.91
123,Hobart,75,AU,1592090783,71,-42.88,147.33,55.0,6.93
124,Sungai Penuh,79,ID,1592090949,86,-2.08,101.38,63.46,3.22
125,Codrington,34,AU,1592090949,88,-38.27,141.97,48.63,14.67
126,Iqaluit,90,CA,1592090949,88,63.75,-68.51,39.2,12.75
127,Nanchital de Lázaro Cárdenas del Río,75,MX,1592090949,74,18.07,-94.4,80.6,15.37
128,Kamenka,67,RU,1592090950,67,51.32,42.77,66.99,19.98
129,Hithadhoo,100,MV,1592090950,75,-0.6,73.08,81.79,14.07
130,San Jose,40,US,1592090871,37,37.34,-121.89,73.99,16.11
131,Palafrugell,70,ES,1592090950,51,41.92,3.16,63.0,7.27
132,Bouca,49,CF,1592090951,95,6.51,18.27,68.0,0.43
133,Gijang,90,KR,1592090951,88,35.24,129.21,75.2,6.93
134,Arman',0,RU,1592090951,58,59.7,150.17,59.11,5.08
135,Brigantine,1,US,1592090951,46,39.41,-74.36,69.8,8.05
136,Port Alfred,29,ZA,1592090794,87,-33.59,26.89,54.0,4.0
137,Itarema,16,BR,1592090952,86,-2.92,-39.92,78.13,9.95
138,Lavrentiya,23,RU,1592090952,77,65.58,-171.0,46.51,9.42
139,Nago,40,JP,1592090952,83,26.59,127.98,84.2,13.87
140,Upernavik,0,GL,1592090952,86,72.79,-56.15,34.75,3.22
141,Rocha,60,UY,1592090666,58,-34.48,-54.33,45.36,11.59
142,Belmonte,20,BR,1592090953,78,-15.86,-38.88,77.0,6.93
143,Ponta do Sol,40,PT,1592090953,77,32.67,-17.1,66.2,3.36
144,Temirtau,20,KZ,1592090953,71,50.05,72.95,55.4,6.71
145,Inzer,55,RU,1592090953,81,54.22,57.56,43.21,3.18
146,Florø,93,NO,1592090954,63,61.6,5.03,64.4,4.7
147,Markala,4,ML,1592090954,29,13.7,-6.07,95.79,7.85
148,Cotonou,40,BJ,1592090954,78,6.37,2.42,82.4,9.17
149,Alofi,100,NU,1592090954,57,-19.06,-169.92,78.8,18.34
150,Castro,100,BR,1592090954,92,-24.79,-50.01,62.06,6.26
151,Osorno,75,CL,1592090955,81,-40.57,-73.15,46.4,9.17
152,Shingū,75,JP,1592090955,94,33.73,135.98,75.2,4.7
153,Tiarei,20,PF,1592090955,70,-17.53,-149.33,86.0,10.29
154,Leningradskiy,10,RU,1592090955,48,69.38,178.42,59.65,1.7
155,Soyo,0,AO,1592090956,87,-6.13,12.37,71.47,5.1
156,Miramar,20,US,1592090956,69,25.99,-80.23,84.99,13.87
157,Miranda,40,CO,1592090956,61,3.25,-76.23,78.8,9.17
158,East London,1,ZA,1592090956,38,-33.02,27.91,57.42,7.25
159,Xining,93,CN,1592090956,63,36.62,101.77,53.1,1.74
160,Kanniyākumāri,90,IN,1592090957,74,8.08,77.57,82.2,20.27
161,Giddalūr,100,IN,1592090957,74,15.35,78.92,78.35,15.14
162,Bethel,1,US,1592090957,39,41.37,-73.41,66.0,13.87
163,Wakkanai,19,JP,1592090957,84,45.41,141.67,55.27,5.93
164,Beaverlodge,90,CA,1592090957,55,55.22,-119.44,60.8,13.87
165,Podporozh'ye,11,RU,1592090958,77,60.91,34.17,47.97,3.13
166,Saint George,1,US,1592090868,4,37.1,-113.58,91.4,20.8
167,Negara,73,ID,1592090958,86,-8.32,114.6,77.18,1.88
168,Seddon,63,AU,1592090958,76,-37.81,144.89,54.0,8.05
169,Aswān,0,EG,1592090722,15,24.09,32.91,91.9,9.62
170,Dulce Nombre de Culmí,100,HN,1592090959,89,15.1,-85.53,75.74,2.95
171,Andra,57,RU,1592090959,64,62.51,65.89,43.12,12.37
172,Torbay,40,CA,1592090959,93,47.67,-52.73,66.99,13.87
173,Boyolangu,44,ID,1592090959,90,-8.12,111.89,75.94,1.05
174,Gogrial,7,SS,1592090960,61,8.53,28.1,80.1,4.65
175,Vardø,24,NO,1592090960,80,70.37,31.11,46.24,2.77
176,Hirara,40,JP,1592090960,79,24.8,125.28,86.0,17.22
177,Baturaja,72,ID,1592090960,95,-4.13,104.17,71.28,2.62
178,Shar,2,KZ,1592090961,54,49.59,81.05,62.85,6.58
179,Beira,75,MZ,1592090961,73,-19.84,34.84,71.01,13.87
180,Verkhovazh'ye,53,RU,1592090961,83,60.75,42.05,42.35,1.41
181,Sinazongwe,59,ZM,1592090961,57,-17.26,27.46,67.41,5.77
182,Mgandu,8,TZ,1592090962,66,-5.95,34.13,58.71,10.4
183,Mahon,0,ES,1592090913,72,39.89,4.27,60.8,2.24
184,Lüderitz,0,NA,1592090962,35,-26.65,15.16,57.2,9.17
185,Bengkulu,56,ID,1592090962,85,-3.8,102.27,74.05,3.96
186,Buala,3,SB,1592090962,73,-8.14,159.59,85.05,9.93
187,Shellbrook,75,CA,1592090963,34,53.22,-106.4,82.4,20.8
188,Fairbanks,1,US,1592090963,36,64.84,-147.72,75.99,5.82
189,Rock Springs,1,US,1592090963,10,41.59,-109.2,80.6,23.04
190,Mehtar Lām,20,AF,1592090963,44,34.67,70.21,77.0,6.93
191,San Borja,85,BO,1592090963,81,-14.82,-66.85,76.82,2.08
192,Barranca,8,PE,1592090964,84,-10.75,-77.77,63.09,7.47
193,Avera,1,US,1592090964,45,33.19,-82.53,84.2,5.82
194,Mount Gambier,90,AU,1592090964,93,-37.83,140.77,48.2,12.75
195,San Policarpo,100,PH,1592090964,84,12.18,125.51,82.72,9.15
196,Alice Springs,90,AU,1592090965,54,-23.7,133.88,57.2,8.05
197,Latung,100,PH,1592090965,84,5.5,120.88,79.34,11.18
198,Takoradze,61,GH,1592090965,88,4.88,-1.76,77.79,7.67
199,Simnas,0,LT,1592090966,67,54.4,23.65,57.2,6.93
200,Tuatapere,0,NZ,1592090966,74,-46.13,167.68,44.22,5.41
201,Patiya,86,BD,1592090966,91,22.29,91.98,77.58,4.52
202,Svetlaya,36,RU,1592090966,74,46.54,138.33,53.55,5.79
203,Ascension,1,US,1592090966,45,30.22,-90.9,90.0,4.7
204,Novoil'insk,1,RU,1592090967,51,51.68,108.71,62.58,2.59
205,Kavieng,22,PG,1592090967,72,-2.57,150.8,85.17,10.94
206,Omboué,29,GA,1592090967,91,-1.57,9.26,72.3,6.85
207,Pevek,100,RU,1592090967,90,69.7,170.31,41.02,4.03
208,Tilichiki,75,RU,1592090968,54,60.47,166.1,50.63,4.88
209,Dwārka,86,IN,1592090968,83,22.24,68.97,85.15,11.68
210,Mount Isa,0,AU,1592090968,28,-20.73,139.5,71.6,5.82
211,Port Hardy,20,CA,1592090894,72,50.7,-127.42,59.0,12.75
212,Camacha,40,PT,1592090969,82,33.08,-16.33,68.0,5.82
213,Uzunovo,98,RU,1592090969,77,54.54,38.62,52.16,16.11
214,Dezhou,48,CN,1592090969,25,37.45,116.29,79.93,17.2
215,Moate,26,IE,1592090970,91,53.55,-7.72,55.99,7.0
216,Takhli,100,TH,1592090970,74,15.26,100.34,84.99,1.01
217,Mehamn,14,NO,1592090970,66,71.04,27.85,49.68,2.06
218,Isla Vista,1,US,1592090784,39,34.41,-119.86,81.0,11.41
219,Imbituba,75,BR,1592090822,59,-28.24,-48.67,64.4,6.93
220,Lębork,40,PL,1592090971,93,54.54,17.75,62.01,9.17
221,Grand Gaube,8,MU,1592090971,89,-20.01,57.66,70.0,3.0
222,Ambunti,72,PG,1592090971,86,-4.24,142.84,80.62,0.96
223,East Wenatchee Bench,40,US,1592090971,28,47.43,-120.28,69.8,17.22
224,Presidencia Roque Sáenz Peña,28,AR,1592090971,44,-26.79,-60.44,54.0,1.99
225,Mabaruma,100,GY,1592090972,84,8.2,-59.78,77.47,3.67
226,Visnes,83,NO,1592090972,56,59.36,5.22,68.0,6.93
227,Huilong,97,CN,1592090972,84,31.81,121.66,88.0,10.04
228,São Félix do Xingu,20,BR,1592090972,73,-6.64,-51.99,75.9,3.71
229,Cervo,91,ES,1592090973,79,43.67,-7.41,60.01,1.99
230,Mar del Plata,20,AR,1592090973,70,-38.0,-57.56,43.0,16.11
231,Kajaani,0,FI,1592090973,71,64.23,27.73,51.8,3.36
232,Okhotsk,98,RU,1592090974,75,59.38,143.3,54.07,2.46
233,Denpasar,20,ID,1592090848,100,-8.65,115.22,80.6,9.17
234,Banepā,75,NP,1592090974,94,27.63,85.52,69.8,2.24
235,Kindu,64,CD,1592090974,91,-2.95,25.95,69.71,1.83
236,Kahului,40,US,1592090974,43,20.89,-156.47,87.8,29.97
237,Tasiilaq,100,GL,1592090975,93,65.61,-37.64,37.4,9.17
238,Aykhal,90,RU,1592090975,100,66.0,111.5,37.4,6.71
239,Dutlwe,0,BW,1592090975,66,-23.98,23.9,40.1,7.81
240,Pitimbu,75,BR,1592090975,83,-7.47,-34.81,75.2,5.82
241,Mauá,9,BR,1592090826,53,-23.67,-46.46,73.99,1.12
242,Comodoro Rivadavia,60,AR,1592090968,65,-45.87,-67.5,41.0,4.7
243,Pangody,100,RU,1592090976,56,65.85,74.49,45.86,23.76
244,Tuktoyaktuk,75,CA,1592090976,55,69.45,-133.04,62.6,12.75
245,Waipawa,20,NZ,1592090976,70,-41.41,175.52,48.99,5.82
246,Mumford,94,GH,1592090977,88,5.26,-0.76,78.42,8.32
247,Laas,40,IT,1592090977,87,46.62,10.7,50.0,2.24
248,Rabo de Peixe,20,PT,1592090977,82,37.8,-25.58,55.4,5.82
249,Yazoo City,1,US,1592090944,37,32.86,-90.41,87.8,4.7
250,Haines Junction,73,CA,1592090977,45,60.75,-137.51,68.04,3.09
251,Batemans Bay,100,AU,1592090978,81,-35.72,150.18,64.0,7.0
252,Agnibilékrou,100,CI,1592090978,98,7.13,-3.2,71.82,3.4
253,Chicama,19,PE,1592090978,74,-7.84,-79.15,66.4,7.54
254,Arlit,42,NE,1592090978,19,18.74,7.39,96.17,5.68
255,Sola,75,VU,1592090979,74,-13.88,167.55,86.0,11.41
256,Najrān,88,SA,1592090979,26,17.49,44.13,78.8,1.12
257,Krasnosel'kup,100,RU,1592090979,88,65.7,82.47,50.02,21.52
258,Khorinsk,10,RU,1592090979,58,52.17,109.77,60.98,4.12
259,San Juan,0,AR,1592090980,46,-31.54,-68.54,48.74,1.61
260,Longyearbyen,75,SJ,1592090980,85,78.22,15.64,37.4,9.17
261,Port Elizabeth,69,ZA,1592090980,93,-33.92,25.57,48.2,4.7
262,Kapustin Yar,33,RU,1592090980,44,48.58,45.74,79.36,13.47
263,Sur,88,OM,1592090981,52,22.57,59.53,87.75,8.93
264,Bonthe,100,SL,1592090981,85,7.53,-12.51,79.09,6.8
265,Pāveh,0,IR,1592090981,40,35.04,46.36,55.08,3.18
266,Carutapera,37,BR,1592090981,92,-1.2,-46.02,75.61,4.81
267,Tautira,20,PF,1592090982,70,-17.73,-149.15,86.0,10.29
268,Saint Anthony,40,US,1592090927,46,45.02,-93.22,71.01,18.34
269,Ituberá,0,BR,1592090982,93,-13.73,-39.15,70.61,3.62
270,Linguère,81,SN,1592090982,44,15.4,-15.12,88.16,16.26
271,Naze,75,JP,1592090982,94,28.37,129.48,82.4,14.99
272,Kaduqli,76,SD,1592090983,51,11.02,29.72,83.5,4.61
273,Khotiv,100,UA,1592090983,73,50.33,30.47,69.8,15.66
274,Hay River,75,CA,1592090983,70,60.82,-115.8,48.2,8.05
275,Bījār,0,IR,1592090983,39,35.87,47.61,54.28,5.57
276,Klaksvík,88,FO,1592090983,93,62.23,-6.59,48.2,1.12
277,Laizhou,90,CN,1592090984,73,37.18,119.93,76.42,2.42
278,Mildura,0,AU,1592090984,87,-34.2,142.15,48.2,6.93
279,Preobrazheniye,100,RU,1592090984,72,42.9,133.91,65.3,2.93
280,Innisfail,69,AU,1592090984,92,-17.53,146.03,75.06,4.21
281,Lukulu,0,ZM,1592090985,56,-14.37,23.24,54.99,4.45
282,Mountain Home,90,US,1592090985,51,43.13,-115.69,60.8,9.17
283,Arrondissement de Castres,18,FR,1592090985,87,43.58,2.17,55.4,3.36
284,Lebu,100,CL,1592090985,70,-37.62,-73.65,47.91,6.87
285,Moose Factory,1,CA,1592090985,50,51.26,-80.61,53.6,10.29
286,Kavaratti,80,IN,1592090905,75,10.57,72.64,84.79,25.01
287,Saint-Pierre,20,RE,1592090986,82,-21.34,55.48,66.2,2.24
288,Laurel,20,US,1592090981,38,39.1,-76.85,75.99,8.05
289,Puerto Ayora,40,EC,1592090986,65,-0.74,-90.35,78.8,19.46
290,Oulainen,0,FI,1592090986,60,64.27,24.8,60.01,3.22
291,Cap Malheureux,5,MU,1592090987,89,-19.98,57.61,70.0,3.0
292,São Filipe,87,CV,1592090987,82,14.9,-24.5,76.03,9.26
293,Praia,75,CV,1592090987,74,14.92,-23.51,80.6,3.36
294,Provideniya,91,RU,1592090987,79,64.38,-173.3,47.44,7.14
295,Balikpapan,100,ID,1592090988,84,-1.27,116.83,78.39,3.6
296,Umluj,0,SA,1592090988,35,25.02,37.27,84.4,4.16
297,Honningsvåg,24,NO,1592090988,71,70.98,25.97,48.63,3.94
298,Lorengau,71,PG,1592090988,68,-2.02,147.27,85.23,8.08
299,Ystad,3,SE,1592090988,67,55.43,13.82,59.0,13.87
300,Tabou,100,CI,1592090989,87,4.42,-7.35,77.58,9.98
301,Tsumeb,0,NA,1592090989,46,-19.23,17.72,49.42,10.16
302,Byron Bay,40,AU,1592090989,78,-28.65,153.62,73.4,12.75
303,Seymchan,97,RU,1592090989,32,62.88,152.43,71.94,3.96
304,Nizwá,27,OM,1592090989,35,22.93,57.53,89.29,2.64
305,Timizart,4,DZ,1592090990,84,36.8,4.27,59.81,3.44
306,Maun,0,BW,1592090990,26,-19.98,23.42,48.2,8.05
307,Norman Wells,75,CA,1592090990,30,65.28,-126.83,71.6,20.8
308,Matinhos,90,BR,1592090990,93,-25.82,-48.54,68.0,9.17
309,Roald,61,NO,1592090991,77,62.58,6.13,60.01,2.24
310,Malakal,9,SS,1592090991,68,9.53,31.66,79.88,2.21
311,Turka,91,UA,1592090888,91,49.15,23.03,66.0,11.99
312,Nakusp,100,CA,1592090991,94,50.25,-117.8,55.0,1.99
313,Laguna,20,US,1592090991,27,38.42,-121.42,78.8,9.17
314,Santa Cruz de La Palma,75,ES,1592090992,68,28.68,-17.76,69.8,6.93
315,Kimbe,68,PG,1592090992,71,-5.55,150.14,84.25,3.15
316,Sibolga,99,ID,1592090992,80,1.74,98.78,77.92,2.39
317,Westport,1,US,1592090957,33,41.14,-73.36,71.6,9.17
318,Kerema,12,PG,1592090993,74,-7.96,145.78,82.31,1.81
319,Quibdó,75,CO,1592090993,88,5.69,-76.66,80.6,8.05
320,Beidao,58,CN,1592090993,69,34.57,105.89,59.49,0.81
321,Pemberton,90,CA,1592090836,66,50.32,-122.8,53.6,5.82
322,Guaíra,81,BR,1592090993,59,-20.32,-48.31,74.14,4.83
323,Tamworth,54,GB,1592090994,93,52.63,-1.7,57.99,3.36
324,Jega,32,NG,1592090994,52,12.22,4.38,87.98,15.46
325,Solomenskoye,19,RU,1592090994,85,44.22,44.35,68.13,4.25
326,Ivankiv,98,UA,1592090994,93,50.94,29.89,66.2,6.71
327,Tromsø,90,NO,1592090734,67,69.65,18.96,57.2,26.4
328,Doka,100,SD,1592090995,67,13.52,35.77,73.74,15.5
329,Ouallam,1,NE,1592090995,37,14.32,2.09,89.47,22.15
330,Sinjār,0,IQ,1592090995,26,36.32,41.88,73.18,4.54
331,Calabozo,79,VE,1592090854,90,8.92,-67.43,77.59,2.98
332,Bend,98,US,1592090996,49,44.06,-121.32,55.99,4.0
333,Kutum,0,SD,1592090996,21,14.2,24.67,72.61,0.16
334,Sanāwad,53,IN,1592090996,59,22.18,76.07,86.9,10.0
335,Nizhniy Chir,52,RU,1592090996,45,48.36,43.09,73.04,7.36
336,La Asuncion,25,VE,1592090997,58,11.03,-63.86,86.0,20.8
337,Portsmouth,2,GB,1592090997,91,50.8,-1.09,57.99,7.16
338,Iquitos,40,PE,1592090997,74,-3.75,-73.25,84.2,3.36
339,Bonavista,10,CA,1592090997,90,48.65,-53.11,55.58,17.38
340,Lumberton,1,US,1592090998,65,34.62,-79.01,82.4,10.29
341,Fort Nelson,90,CA,1592090998,93,58.81,-122.7,55.4,3.36
342,Kosh-Agach,64,RU,1592090998,82,50.0,88.67,49.1,0.4
343,Bitkine,24,TD,1592090999,54,11.98,18.21,81.32,19.19
344,Paamiut,94,GL,1592090999,93,61.99,-49.67,38.59,20.6
345,San Quintín,0,MX,1592090999,56,30.48,-115.95,70.27,21.14
346,Kruisfontein,98,ZA,1592090999,66,-34.0,24.73,51.4,4.29
347,Palauig,100,PH,1592090999,69,15.44,119.9,82.53,3.83
348,Russell,1,US,1592090705,33,32.35,-85.2,87.8,9.17
349,Jalu,2,LY,1592091000,26,29.03,21.55,76.66,11.97
350,Leshukonskoye,29,RU,1592091000,83,64.9,45.76,46.99,6.67
351,Troitsko-Pechorsk,89,RU,1592091000,94,62.71,56.2,41.07,6.6
352,Geraldton,60,AU,1592091001,93,-28.77,114.6,50.0,11.41
353,Sharanga,0,RU,1592091001,90,57.18,46.54,43.02,5.86
354,Arrondissement d'Ajaccio,22,FR,1592090897,93,42.0,8.92,59.0,5.82
355,Glasgow,90,GB,1592090711,93,55.87,-4.26,57.0,10.29
356,Tezpur,88,IN,1592091002,94,26.63,92.8,76.77,3.4
357,Port Augusta,0,AU,1592091002,87,-32.5,137.77,48.0,12.75
358,Sotnikovo,0,RU,1592091002,66,51.88,107.48,55.4,2.71
359,Cayenne,78,GF,1592091003,100,4.93,-52.33,75.2,4.9
360,Berlevåg,17,NO,1592091003,68,70.86,29.09,49.51,4.54
361,Qasigiannguit,100,GL,1592091003,52,68.82,-51.19,42.8,6.93
362,Kupang,20,ID,1592091003,78,-10.17,123.58,78.8,9.17
363,Lagos,20,NG,1592090845,88,6.58,3.75,78.8,3.58
364,Mahébourg,75,MU,1592091004,94,-20.41,57.7,71.6,3.36
365,Muros,82,ES,1592091004,78,42.78,-9.06,61.0,8.99
366,Sterling,40,US,1592091004,44,39.01,-77.43,75.2,5.82
367,Beringovskiy,2,RU,1592091005,68,63.05,179.32,47.21,7.74
368,Tcholliré,45,CM,1592091005,87,8.4,14.17,72.52,3.91
369,Nantucket,1,US,1592091005,67,41.28,-70.1,60.8,12.75
370,Bosaso,100,SO,1592091005,49,11.28,49.18,90.5,7.58
371,Pocatello,1,US,1592091006,21,42.87,-112.45,69.8,20.8
372,Ambon City,40,ID,1592091006,94,-3.7,128.18,77.0,2.24
373,Maningrida,25,AU,1592091006,65,-12.07,134.27,79.79,12.86
374,Sokolo,6,ML,1592091006,30,14.73,-6.12,95.61,5.32
375,Toronto,1,CA,1592090756,41,43.7,-79.42,63.0,8.05
376,Constitución,68,CL,1592091007,62,-35.33,-72.42,49.15,5.84
377,College,75,US,1592091007,38,64.86,-147.8,75.99,4.97
378,Vanimo,71,PG,1592091007,67,-2.67,141.3,84.69,5.12
379,Morant Bay,75,JM,1592091007,88,17.88,-76.41,82.4,12.75
380,São João da Barra,0,BR,1592091007,84,-21.64,-41.05,73.74,9.95
381,Bereda,75,ES,1592091008,92,43.27,-7.54,54.0,5.01
382,Nanortalik,100,GL,1592091008,94,60.14,-45.24,42.49,7.58
383,Batagay-Alyta,77,RU,1592091008,65,67.8,130.41,56.71,3.69
384,Pombas,33,CV,1592091009,69,17.15,-25.02,78.8,16.11
385,Ugoofaaru,88,MV,1592091009,77,5.67,73.0,84.56,13.76
386,Province of Mantua,100,IT,1592091009,92,45.17,10.78,63.0,1.99
387,Egvekinot,30,RU,1592091009,66,66.32,-179.17,45.55,6.22
388,Darhan,0,MN,1592091010,52,49.49,105.92,63.32,8.41
389,The Valley,20,AI,1592090714,66,18.22,-63.06,84.2,10.29
390,Houma,91,US,1592091010,31,29.6,-90.72,87.01,8.99
391,Karratha,24,AU,1592091010,55,-20.74,116.85,73.33,11.61
392,Sal Rei,50,CV,1592091011,78,16.18,-22.92,77.0,10.29
393,Osijek,0,HR,1592091011,93,45.55,18.69,66.99,5.82
394,Vila Velha,0,BR,1592091011,83,-20.33,-40.29,75.99,4.7
395,Tres Arroyos,34,AR,1592091011,67,-38.37,-60.28,39.2,7.74
396,Vostok,100,RU,1592091012,50,46.49,135.88,68.58,2.15
397,Riyadh,1,SA,1592090856,28,24.69,46.72,84.2,2.24
398,Chapais,1,CA,1592091012,37,49.78,-74.85,53.6,10.29
399,Bijie,100,CN,1592091012,92,27.31,105.29,65.32,3.11
400,Aras,55,ES,1592091012,87,42.56,-2.36,57.2,1.12
401,Pathein,93,MM,1592091013,86,16.78,94.73,82.0,5.14
402,Belyy Yar,3,RU,1592091013,87,53.6,91.39,60.8,4.94
403,Koslan,15,RU,1592091013,90,63.46,48.9,43.54,6.82
404,Mattru,100,SL,1592091014,95,7.62,-11.83,75.31,3.11
405,Tías,20,ES,1592091014,68,28.96,-13.64,71.6,9.17
406,Faya,22,SA,1592091014,46,18.39,42.45,71.6,3.38
407,Zyryanovsk,51,KZ,1592091014,80,49.74,84.27,59.97,1.54
408,Dourbali,77,TD,1592091015,47,11.81,15.86,86.34,15.61
409,Hasaki,75,JP,1592091015,100,35.73,140.83,75.0,5.82
410,Ola,0,RU,1592090841,61,59.58,151.28,55.54,3.4
411,Khandyga,70,RU,1592091015,44,62.67,135.6,72.1,1.16
412,Texarkana,1,US,1592091015,40,33.43,-94.05,91.0,5.82
413,Yar-Sale,35,RU,1592091016,62,66.83,70.83,45.7,17.11
414,Sørland,62,NO,1592091016,87,67.67,12.69,51.8,4.7
415,Mogocha,50,RU,1592091016,52,53.73,119.77,56.7,8.93
416,Kiryat Gat,0,IL,1592091016,77,31.61,34.76,73.99,3.94
417,Kamphaeng Phet,100,TH,1592091017,70,16.48,99.52,87.01,2.37
418,Letlhakane,0,BW,1592091017,65,-21.42,25.58,47.07,10.71
419,Otradnoye,0,RU,1592091017,62,59.78,30.82,53.6,2.24
420,Albion,75,US,1592091017,45,42.24,-84.75,64.99,4.7
421,Sonoita,0,MX,1592091018,5,31.85,-112.83,100.0,3.0
422,Nicoya,75,CR,1592091002,94,10.15,-85.45,78.8,5.82
423,Nouadhibou,18,MR,1592091018,37,20.93,-17.03,86.0,28.86
424,Iskateley,99,RU,1592091018,82,67.68,53.15,41.97,15.84
425,Yumen,100,CN,1592091019,23,40.28,97.2,69.15,6.22
426,Alamogordo,1,US,1592090852,13,32.9,-105.96,93.2,18.34
427,Enköping,85,SE,1592091019,71,59.64,17.08,60.01,4.7
428,Zhigansk,96,RU,1592091019,80,66.77,123.37,56.7,13.98
429,Kem',13,RU,1592091019,74,64.96,34.58,55.0,8.05
430,Pemangkat,100,ID,1592091020,88,1.17,108.97,78.3,9.6
431,Mazatlán,40,MX,1592091013,58,23.22,-106.42,86.0,11.41
432,Dabat,78,ET,1592091020,84,12.98,37.77,56.64,2.04
433,Sawākin,0,SD,1592091020,55,19.11,37.33,85.08,2.86
434,Ambilobe,0,MG,1592091021,83,-13.2,49.05,65.68,2.93
435,Turukhansk,95,RU,1592091021,87,65.82,87.98,54.54,15.61
436,Ahipara,48,NZ,1592091021,82,-35.17,173.17,58.8,9.19
437,Saldanha,0,ZA,1592091021,75,-33.01,17.94,46.4,3.36
438,Lixouri,32,GR,1592091021,77,38.2,20.43,67.55,11.1
439,Manta,40,EC,1592091022,78,-0.95,-80.73,77.0,6.93
440,Ji’an,38,CN,1592091022,77,27.12,114.98,83.39,9.4
441,Yendi,3,GH,1592091022,70,9.44,-0.01,78.01,5.75
442,Fuerte,71,PH,1592091022,73,17.54,120.36,83.35,3.74
443,Amahai,98,ID,1592091023,95,-3.33,128.92,82.99,1.99
444,Grenfell,74,AU,1592091023,87,-33.9,148.17,52.72,10.31
445,Kismayo,84,SO,1592091023,78,-0.36,42.55,78.48,17.34
446,Lewistown,47,US,1592091023,35,40.6,-77.57,69.01,1.01
447,Isangel,75,VU,1592091023,69,-19.55,169.27,80.6,11.41
448,São Paulo de Olivença,43,BR,1592091024,94,-3.38,-68.87,74.68,2.42
449,Katherine,0,AU,1592091024,44,-14.47,132.27,75.2,5.82
450,Lincoln,1,US,1592090869,31,40.8,-96.67,91.4,18.34
451,Kaeo,99,NZ,1592091024,3,-35.1,173.78,57.99,1.99
452,Viedma,98,AR,1592091025,60,-40.81,-63.0,43.57,8.25
453,Los Llanos de Aridane,75,ES,1592091025,68,28.66,-17.92,69.8,6.93
454,Airai,1,TL,1592091025,67,-8.93,125.41,66.42,4.79
455,Kysyl-Syr,100,RU,1592091025,69,63.9,122.76,58.68,5.64
456,North Bend,90,US,1592090998,67,43.41,-124.22,63.0,13.87
457,Guerrero Negro,0,MX,1592091026,63,27.98,-114.06,70.48,22.88
458,Shelburne,1,CA,1592091026,38,44.08,-80.2,59.0,6.93
459,Tarpon Springs,90,US,1592090858,78,28.15,-82.76,80.01,6.93
460,Maltahöhe,0,NA,1592091027,60,-24.83,16.98,37.15,5.32
461,Ajdabiya,0,LY,1592091027,40,30.76,20.23,71.62,8.1
462,Lázaro Cárdenas,97,MX,1592091027,77,17.96,-102.2,83.25,9.75
463,Katangli,100,RU,1592091028,95,51.71,143.23,42.26,11.27
464,Verkhnyaya Inta,100,RU,1592091028,78,65.98,60.31,44.73,16.28
465,Rio Brilhante,69,BR,1592091028,91,-21.8,-54.55,69.87,5.03
466,Niğde,27,TR,1592091028,79,37.83,34.75,49.33,3.0
467,Porbandar,65,IN,1592091029,85,21.64,69.61,84.76,8.23
468,Tandil,15,AR,1592090995,54,-37.32,-59.13,37.99,3.0
469,Gazli,33,UZ,1592091029,16,40.13,63.45,80.37,7.23
470,Talnakh,100,RU,1592091029,53,69.49,88.4,51.8,11.18
471,Naryan-Mar,99,RU,1592091029,82,67.67,53.09,42.04,15.88
472,Myitkyina,80,MM,1592091030,90,25.38,97.4,75.45,0.78
473,Kununurra,0,AU,1592091030,25,-15.77,128.73,69.8,9.64
474,Masuguru,62,TZ,1592091030,77,-11.37,38.42,65.95,3.09
475,Chhor,78,PK,1592091030,58,25.52,69.77,88.21,11.72
476,Iquique,75,CL,1592091031,77,-20.22,-70.14,60.8,10.29
477,Aquiraz,20,BR,1592091031,78,-3.9,-38.39,80.6,8.05
478,Winburg,0,ZA,1592091031,87,-28.52,27.01,28.33,2.75
479,Cobija,12,BO,1592091031,76,-11.03,-68.77,76.95,3.0
480,Maués,33,BR,1592091031,88,-3.38,-57.72,76.95,1.16
481,Lompoc,0,US,1592091032,63,34.64,-120.46,64.4,20.8
482,Baie-Comeau,1,CA,1592090736,58,49.22,-68.15,55.4,11.41
483,Muzhi,66,RU,1592091032,71,65.37,64.67,46.85,17.0
484,Tabuk,0,PH,1592091033,74,17.42,121.44,80.82,0.96
485,Ganzhou,96,CN,1592091033,76,28.82,115.43,84.7,8.39
486,Hamilton,1,US,1592091033,56,39.18,-84.53,73.4,10.29
487,Havre-St-Pierre,75,CA,1592091033,66,50.23,-63.6,50.0,12.75
488,Abu Dhabi,53,AE,1592090804,84,24.47,54.37,88.0,2.24
489,Longhua,60,CN,1592091034,84,23.61,114.19,81.34,6.91
490,Jieshi,91,CN,1592091034,82,22.81,115.83,83.34,15.99
491,Ancud,90,CL,1592091034,100,-41.87,-73.82,46.99,16.11
492,Prachuap Khiri Khan,51,TH,1592091035,80,11.82,99.78,81.43,6.53
493,Christchurch,4,NZ,1592090892,80,-43.53,172.63,48.0,5.82
494,Waddān,0,LY,1592091035,21,29.16,16.14,80.44,19.42
495,Umm Kaddadah,4,SD,1592091035,21,13.6,26.69,90.55,4.47
496,Vikhorevka,0,RU,1592091035,87,56.12,101.16,59.0,4.47
497,Tomarovka,93,RU,1592091036,77,50.68,36.23,68.0,13.42
498,Mongoumba,95,CF,1592091036,92,3.64,18.59,71.04,0.22
499,West Plains,1,US,1592091036,38,36.73,-91.85,87.8,3.36
500,Freeport,1,US,1592090774,33,40.66,-73.58,73.4,8.05
501,Sibul Springs,75,PH,1592091037,88,15.17,121.06,84.0,2.24
502,Aktau,18,KZ,1592091037,27,43.65,51.2,75.2,11.18
503,Shenzhen,86,CN,1592090608,99,22.55,114.07,84.0,17.9
504,Fallon,40,US,1592091037,12,39.47,-118.78,70.0,13.87
505,Anjozorobe,75,MG,1592091037,76,-18.4,47.87,53.6,6.93
506,Jinchang,57,CN,1592091038,28,38.5,102.17,65.3,3.78
507,Smithers,75,CA,1592090840,58,54.78,-127.17,57.2,2.24
508,Trelew,96,AR,1592091020,63,-43.25,-65.31,42.06,6.91
509,Cockburn Town,40,TC,1592091038,66,21.46,-71.14,84.2,4.7
510,Mokhsogollokh,0,RU,1592091038,48,61.47,128.92,68.72,3.85
511,Ankazoabo,3,MG,1592091039,80,-22.28,44.52,60.55,10.54
512,Chara,16,RU,1592091039,54,56.91,118.26,54.12,2.24
513,Shubarshi,0,KZ,1592091039,76,48.59,57.19,68.54,7.65
514,Yerbogachën,97,RU,1592091039,58,61.28,108.01,55.06,4.65
515,Banda Aceh,99,ID,1592091040,78,5.56,95.32,80.6,5.91
516,Capácuaro,75,MX,1592091040,64,19.55,-102.05,75.2,11.41
517,Saint-Joseph,20,RE,1592091040,82,-21.37,55.62,66.2,2.24
518,Emerald,90,AU,1592091040,100,-23.53,148.17,69.8,8.05
519,Moss Point,1,US,1592091040,74,30.41,-88.53,82.4,11.41
520,Dalgopol,44,BG,1592091041,93,43.05,27.35,64.4,4.63
521,Green River,1,US,1592090816,10,41.53,-109.47,80.6,23.04
522,Bambanglipuro,69,ID,1592091041,86,-7.95,110.28,78.96,4.83
523,Āgaro,40,ET,1592091041,87,7.85,36.65,57.78,2.64
524,Aklavik,75,CA,1592091041,25,68.22,-135.01,75.2,6.93
525,Chagoda,4,RU,1592091042,83,59.16,35.33,46.87,4.54
526,Tunceli,1,TR,1592091042,66,39.11,39.55,55.4,4.7
527,Nizhniy Odes,97,RU,1592091042,90,63.64,54.86,43.72,7.9
528,Maceió,75,BR,1592091042,100,-9.67,-35.74,75.2,9.17
529,Puerto Escondido,52,MX,1592091043,69,15.85,-97.07,84.79,7.7
530,Port Hedland,17,AU,1592091043,63,-20.32,118.57,66.2,6.93
531,Chifeng,0,CN,1592091043,32,42.27,118.96,70.23,19.44
532,Rawson,91,AR,1592091043,60,-43.3,-65.1,43.54,7.61
533,Hammerfest,72,NO,1592090969,58,70.66,23.68,55.4,14.99
534,Juigalpa,93,NI,1592091044,91,12.11,-85.36,76.03,4.97
535,Srednekolymsk,0,RU,1592091044,35,67.45,153.68,72.86,5.59
536,La Paz,20,BO,1592090875,56,-16.5,-68.15,44.6,10.29
537,Marsaxlokk,4,MT,1592091044,77,35.84,14.54,73.99,8.05
538,Emba,0,KZ,1592091044,72,48.83,58.14,66.06,10.71
539,Morón,0,AR,1592090889,48,-34.65,-58.62,46.99,4.7
540,Katsuura,100,JP,1592091045,93,35.13,140.3,71.01,1.99
541,La Cumbre,0,AR,1592091045,47,-30.98,-64.49,39.0,1.99
542,Macamic,20,CA,1592091045,29,48.75,-79.0,60.8,11.41
543,Khasan,79,RU,1592091046,83,42.43,130.64,65.89,5.57
544,Khanbari,86,NP,1592091046,74,27.37,87.2,75.06,0.74
545,Tigil',14,RU,1592091046,26,57.8,158.67,70.39,3.62
546,Bonfim,36,BR,1592091046,81,3.08,-59.95,79.14,3.71
547,Shimanovsk,100,RU,1592091046,57,52.0,127.7,61.93,10.0
548,Tsimmerbude,7,RU,1592091047,82,54.67,20.13,59.0,8.95
549,Vestmannaeyjar,54,IS,1592091047,79,63.44,-20.27,46.62,9.31
550,Wenatchee,40,US,1592091047,28,47.42,-120.31,69.8,17.22
551,Vila,61,PT,1592091047,87,42.03,-8.16,61.0,2.24
552,Savannah Bight,96,HN,1592091047,72,16.45,-85.85,83.01,10.13
553,Bunia,99,CD,1592091048,94,1.57,30.25,62.4,2.39
554,Anchorage,20,US,1592091048,35,61.22,-149.9,70.0,6.93
555,Arrondissement de Privas,64,FR,1592091048,88,44.58,4.5,57.99,5.57
556,Beloha,0,MG,1592091048,80,-25.17,45.05,57.24,5.73
557,Angoche,3,MZ,1592091049,80,-16.23,39.91,71.1,9.69
558,Ketchikan,90,US,1592090774,93,55.34,-131.65,53.6,10.29
559,Kolondiéba,14,ML,1592091049,66,11.09,-6.89,80.15,5.44
560,Belo Oriente,0,BR,1592091049,80,-19.22,-42.48,67.41,2.08
561,Victor Harbor,56,AU,1592091049,87,-35.57,138.62,54.0,15.01
562,Inta,100,RU,1592091050,77,66.03,60.17,45.0,16.24
563,Ténenkou,4,ML,1592091050,26,14.46,-4.92,96.91,6.85
564,Coyhaique,90,CL,1592091050,93,-45.58,-72.07,37.4,5.82
565,Poselki,81,RU,1592091051,84,53.13,46.5,52.9,11.03
566,Jiayuguan City,99,CN,1592091051,25,39.82,98.3,67.84,3.31
567,Baykit,99,RU,1592091051,89,61.67,96.37,55.63,3.2
568,Ziarat,0,PK,1592091051,31,30.38,67.73,56.97,1.01
569,Dabola,100,GN,1592091052,88,10.75,-11.12,69.35,2.95
570,Namatanai,30,PG,1592091052,68,-3.67,152.43,85.95,7.85
571,Eureka,90,US,1592090824,72,40.8,-124.16,64.99,1.01
572,Ixtapa,5,MX,1592091052,58,20.7,-105.2,86.0,11.41
573,Djambala,15,CG,1592091052,96,-2.54,14.75,68.32,2.82
574,Pangai,100,TO,1592090765,72,-19.8,-174.35,74.16,24.96
575,Bud,40,US,1592091053,56,39.45,-86.18,72.0,9.17
576,Campoverde,49,PE,1592091053,69,-8.48,-74.81,78.26,1.32
577,Prince Rupert,90,CA,1592090766,87,54.32,-130.32,53.6,4.7
578,Sinnamary,88,GF,1592091054,85,5.38,-52.95,77.38,4.9
579,Kalmunai,51,LK,1592091054,80,7.42,81.82,80.53,6.35
580,Dalvik,20,IS,1592091054,57,65.97,-18.53,51.8,5.82
